[
  {"id": 1, "name": "ABC Concrete Supplies", "location": "123 Main St, Birmingham, AL 35203", "state": "Alabama", "phone": "205-555-1234", "rating": 4.5, "reviews": 45, "source": "Directory", "category": "Concrete & Cement", "region": "Southeast", "products": ["Ready-Mix Concrete", "Portland Cement", "Concrete Blocks"], "certifications": ["ISO 9001"], "leadTime": "2-4 weeks", "responseTime": "24 hours", "stockLevel": 2500, "inStock": true, "minimumOrder": 100, "walmartVerified": true, "size": "Medium (51-500)", "priceRange": "Standard ($$)", "aiScore": 82, "lastUpdated": "2025-01-06T08:25:23.609720", "lastStockCheck": "2025-01-06T08:25:23.609720"},
  {"id": 2, "name": "XYZ Steel & Metal Corp", "location": "456 Industrial Ave, Phoenix, AZ 85001", "state": "Arizona", "phone": "602-555-5678", "rating": 4.2, "reviews": 38, "source": "Directory", "category": "Steel & Metal", "region": "Southwest", "products": ["Structural Steel", "Rebar", "Steel Beams"], "certifications": [], "leadTime": "1-2 weeks", "responseTime": "48 hours", "stockLevel": 3200, "inStock": true, "minimumOrder": 250, "walmartVerified": false, "size": "Large (500-2000)", "priceRange": "Standard ($$)", "aiScore": 76, "lastUpdated": "2025-01-06T08:25:23.609720", "lastStockCheck": "2025-01-06T08:25:23.609720"},
  {"id": 3, "name": "Global Lumber & Wood Co", "location": "789 Forest Rd, Little Rock, AR 72201", "state": "Arkansas", "phone": "501-555-9101", "rating": 4.6, "reviews": 52, "source": "Directory", "category": "Lumber & Wood", "region": "Southeast", "products": ["Dimensional Lumber", "Plywood", "OSB Panels"], "certifications": ["ISO 9001", "LEED"], "leadTime": "3-5 days", "responseTime": "24 hours", "stockLevel": 1800, "inStock": true, "minimumOrder": 50, "walmartVerified": true, "size": "Large (500-2000)", "priceRange": "Premium ($$$)", "aiScore": 88, "lastUpdated": "2025-01-06T08:25:23.609720", "lastStockCheck": "2025-01-06T08:25:23.609720"},
  {"id": 4, "name": "Premier Roofing Materials", "location": "321 Roof St, Sacramento, CA 95814", "state": "California", "phone": "916-555-2345", "rating": 3.8, "reviews": 29, "source": "Directory", "category": "Roofing Materials", "region": "West", "products": ["Asphalt Shingles", "Metal Roofing", "TPO Membrane"], "certifications": [], "leadTime": "4-6 weeks", "responseTime": "2 business days", "stockLevel": 4100, "inStock": true, "minimumOrder": 100, "walmartVerified": false, "size": "Medium (51-500)", "priceRange": "Standard ($$)", "aiScore": 71, "lastUpdated": "2025-01-06T08:25:23.609720", "lastStockCheck": "2025-01-06T08:25:23.609720"},
  {"id": 5, "name": "Eastern Electrical Supply", "location": "654 Power Way, Denver, CO 80202", "state": "Colorado", "phone": "303-555-6789", "rating": 4.3, "reviews": 41, "source": "Directory", "category": "Electrical", "region": "West", "products": ["Wire & Cable", "Conduit", "LED Fixtures"], "certifications": ["UL Certified"], "leadTime": "2-4 weeks", "responseTime": "24 hours", "stockLevel": 2900, "inStock": true, "minimumOrder": 100, "walmartVerified": true, "size": "Large (500-2000)", "priceRange": "Standard ($$)", "aiScore": 79, "lastUpdated": "2025-01-06T08:25:23.609720", "lastStockCheck": "2025-01-06T08:25:23.609720"},
  {"id": 6, "name": "Western Plumbing Distributors", "location": "987 Pipe Ct, Bridgeport, CT 06601", "state": "Connecticut", "phone": "203-555-3456", "rating": 4.4, "reviews": 48, "source": "Directory", "category": "Plumbing", "region": "Northeast", "products": ["PVC Pipe", "Copper Pipe", "Valves & Fittings"], "certifications": ["ISO 9001"], "leadTime": "2-4 weeks", "responseTime": "24 hours", "stockLevel": 2200, "inStock": true, "minimumOrder": 100, "walmartVerified": true, "size": "Medium (51-500)", "priceRange": "Standard ($$)", "aiScore": 81, "lastUpdated": "2025-01-06T08:25:23.609720", "lastStockCheck": "2025-01-06T08:25:23.609720"},
  {"id": 7, "name": "Central HVAC Systems", "location": "147 Climate Ln, Wilmington, DE 19801", "state": "Delaware", "phone": "302-555-7890", "rating": 4.1, "reviews": 35, "source": "Directory", "category": "HVAC", "region": "Northeast", "products": ["Air Handling Units", "Ductwork", "Thermostats"], "certifications": [], "leadTime": "4-6 weeks", "responseTime": "2 business days", "stockLevel": 1500, "inStock": true, "minimumOrder": 250, "walmartVerified": false, "size": "Medium (51-500)", "priceRange": "Premium ($$$)", "aiScore": 74, "lastUpdated": "2025-01-06T08:25:23.609720", "lastStockCheck": "2025-01-06T08:25:23.609720"},
  {"id": 8, "name": "National Paint & Coatings", "location": "258 Color Blvd, Jacksonville, FL 32099", "state": "Florida", "phone": "904-555-4567", "rating": 4.7, "reviews": 61, "source": "Directory", "category": "Paint & Coatings", "region": "Southeast", "products": ["Interior Paint", "Exterior Paint", "Primers"], "certifications": ["ISO 9001", "Energy Star Partner"], "leadTime": "1 week", "responseTime": "24 hours", "stockLevel": 3500, "inStock": true, "minimumOrder": 50, "walmartVerified": true, "size": "Large (500-2000)", "priceRange": "Budget ($)", "aiScore": 85, "lastUpdated": "2025-01-06T08:25:23.609720", "lastStockCheck": "2025-01-06T08:25:23.609720"},
  {"id": 9, "name": "Quality Suppliers Inc", "location": "369 Commerce St, Atlanta, GA 30303", "state": "Georgia", "phone": "404-555-8901", "rating": 4.0, "reviews": 32, "source": "Directory", "category": "Tools & Equipment", "region": "Southeast", "products": ["Power Tools", "Hand Tools", "Generators"], "certifications": [], "leadTime": "2-4 weeks", "responseTime": "48 hours", "stockLevel": 2700, "inStock": true, "minimumOrder": 100, "walmartVerified": false, "size": "Medium (51-500)", "priceRange": "Standard ($$)", "aiScore": 72, "lastUpdated": "2025-01-06T08:25:23.609720", "lastStockCheck": "2025-01-06T08:25:23.609720"},
  {"id": 10, "name": "Elite Materials Trading", "location": "456 Supply Way, Honolulu, HI 96814", "state": "Hawaii", "phone": "808-555-2109", "rating": 3.9, "reviews": 26, "source": "Directory", "category": "Concrete & Cement", "region": "West", "products": ["Ready-Mix Concrete", "Concrete Blocks", "Portland Cement"], "certifications": [], "leadTime": "2-3 months", "responseTime": "3 business days", "stockLevel": 1200, "inStock": true, "minimumOrder": 500, "walmartVerified": false, "size": "Small (1-50)", "priceRange": "Premium ($$$)", "aiScore": 68, "lastUpdated": "2025-01-06T08:25:23.609720", "lastStockCheck": "2025-01-06T08:25:23.609720"},
  {"id": 11, "name": "Superior Steel Solutions", "location": "567 Factory Ave, Boise, ID 83702", "state": "Idaho", "phone": "208-555-3210", "rating": 4.4, "reviews": 50, "source": "Directory", "category": "Steel & Metal", "region": "West", "products": ["Structural Steel", "Metal Studs", "Steel Beams"], "certifications": ["ISO 9001"], "leadTime": "2-4 weeks", "responseTime": "24 hours", "stockLevel": 3800, "inStock": true, "minimumOrder": 100, "walmartVerified": true, "size": "Large (500-2000)", "priceRange": "Standard ($$)", "aiScore": 80, "lastUpdated": "2025-01-06T08:25:23.609720", "lastStockCheck": "2025-01-06T08:25:23.609720"},
  {"id": 12, "name": "Professional Lumber Yard", "location": "678 Wood St, Chicago, IL 60601", "state": "Illinois", "phone": "312-555-4321", "rating": 4.5, "reviews": 55, "source": "Directory", "category": "Lumber & Wood", "region": "Midwest", "products": ["Dimensional Lumber", "Plywood", "Engineered Wood"], "certifications": ["LEED"], "leadTime": "1-2 weeks", "responseTime": "24 hours", "stockLevel": 2600, "inStock": true, "minimumOrder": 50, "walmartVerified": true, "size": "Large (500-2000)", "priceRange": "Standard ($$)", "aiScore": 83, "lastUpdated": "2025-01-06T08:25:23.609720", "lastStockCheck": "2025-01-06T08:25:23.609720"},
  {"id": 13, "name": "Advanced Roofing Co", "location": "789 Shingle Rd, Indianapolis, IN 46204", "state": "Indiana", "phone": "317-555-5432", "rating": 4.2, "reviews": 42, "source": "Directory", "category": "Roofing Materials", "region": "Midwest", "products": ["Asphalt Shingles", "Metal Roofing", "Slate Tiles"], "certifications": [], "leadTime": "3-5 days", "responseTime": "24 hours", "stockLevel": 2300, "inStock": true, "minimumOrder": 100, "walmartVerified": false, "size": "Medium (51-500)", "priceRange": "Standard ($$)", "aiScore": 75, "lastUpdated": "2025-01-06T08:25:23.609720", "lastStockCheck": "2025-01-06T08:25:23.609720"},
  {"id": 14, "name": "Optimal Electrical Distributors", "location": "890 Volt Ave, Des Moines, IA 50309", "state": "Iowa", "phone": "515-555-6543", "rating": 4.3, "reviews": 44, "source": "Directory", "category": "Electrical", "region": "Midwest", "products": ["Wire & Cable", "LED Fixtures", "Switches & Outlets"], "certifications": ["UL Certified"], "leadTime": "2-4 weeks", "responseTime": "24 hours", "stockLevel": 2100, "inStock": true, "minimumOrder": 100, "walmartVerified": true, "size": "Medium (51-500)", "priceRange": "Standard ($$)", "aiScore": 77, "lastUpdated": "2025-01-06T08:25:23.609720", "lastStockCheck": "2025-01-06T08:25:23.609720"},
  {"id": 15, "name": "Reliable Plumbing Supply", "location": "901 Flow Ln, Topeka, KS 66603", "state": "Kansas", "phone": "785-555-7654", "rating": 4.4, "reviews": 49, "source": "Directory", "category": "Plumbing", "region": "Midwest", "products": ["PVC Pipe", "Copper Pipe", "Water Heaters"], "certifications": ["ISO 9001"], "leadTime": "2-4 weeks", "responseTime": "24 hours", "stockLevel": 1900, "inStock": true, "minimumOrder": 100, "walmartVerified": true, "size": "Medium (51-500)", "priceRange": "Standard ($$)", "aiScore": 79, "lastUpdated": "2025-01-06T08:25:23.609720", "lastStockCheck": "2025-01-06T08:25:23.609720"},
  {"id": 16, "name": "Strategic HVAC Solutions", "location": "102 Cool St, Louisville, KY 40202", "state": "Kentucky", "phone": "502-555-8765", "rating": 4.0, "reviews": 33, "source": "Directory", "category": "HVAC", "region": "Southeast", "products": ["Air Handling Units", "Ductwork", "Air Filters"], "certifications": [], "leadTime": "4-6 weeks", "responseTime": "2 business days", "stockLevel": 1400, "inStock": true, "minimumOrder": 250, "walmartVerified": false, "size": "Small (1-50)", "priceRange": "Premium ($$$)", "aiScore": 70, "lastUpdated": "2025-01-06T08:25:23.609720", "lastStockCheck": "2025-01-06T08:25:23.609720"},
  {"id": 17, "name": "Dynamic Paint Suppliers", "location": "213 Brush Ct, New Orleans, LA 70112", "state": "Louisiana", "phone": "504-555-9876", "rating": 4.6, "reviews": 58, "source": "Directory", "category": "Paint & Coatings", "region": "Southeast", "products": ["Interior Paint", "Exterior Paint", "Epoxy Coatings"], "certifications": ["ISO 9001"], "leadTime": "1 week", "responseTime": "24 hours", "stockLevel": 3300, "inStock": true, "minimumOrder": 50, "walmartVerified": true, "size": "Large (500-2000)", "priceRange": "Standard ($$)", "aiScore": 84, "lastUpdated": "2025-01-06T08:25:23.609720", "lastStockCheck": "2025-01-06T08:25:23.609720"},
  {"id": 18, "name": "Progressive Tools & Equipment", "location": "324 Hammer Way, Portland, ME 04101", "state": "Maine", "phone": "207-555-0123", "rating": 4.1, "reviews": 37, "source": "Directory", "category": "Tools & Equipment", "region": "Northeast", "products": ["Power Tools", "Hand Tools", "Air Compressors"], "certifications": [], "leadTime": "2-4 weeks", "responseTime": "48 hours", "stockLevel": 2000, "inStock": true, "minimumOrder": 100, "walmartVerified": false, "size": "Medium (51-500)", "priceRange": "Standard ($$)", "aiScore": 73, "lastUpdated": "2025-01-06T08:25:23.609720", "lastStockCheck": "2025-01-06T08:25:23.609720"},
  {"id": 19, "name": "Integrated Materials Group", "location": "435 Supply Rd, Baltimore, MD 21202", "state": "Maryland", "phone": "410-555-1234", "rating": 4.3, "reviews": 46, "source": "Directory", "category": "Concrete & Cement", "region": "Northeast", "products": ["Ready-Mix Concrete", "Concrete Blocks", "Concrete Sealers"], "certifications": ["ISO 9001"], "leadTime": "2-4 weeks", "responseTime": "24 hours", "stockLevel": 2400, "inStock": true, "minimumOrder": 100, "walmartVerified": true, "size": "Medium (51-500)", "priceRange": "Standard ($$)", "aiScore": 78, "lastUpdated": "2025-01-06T08:25:23.609720", "lastStockCheck": "2025-01-06T08:25:23.609720"},
  {"id": 20, "name": "Universal Steel & Metal", "location": "546 Iron Blvd, Boston, MA 02101", "state": "Massachusetts", "phone": "617-555-2345", "rating": 4.5, "reviews": 54, "source": "Directory", "category": "Steel & Metal", "region": "Northeast", "products": ["Structural Steel", "Rebar", "Steel Plate"], "certifications": ["ISO 9001"], "leadTime": "2-4 weeks", "responseTime": "24 hours", "stockLevel": 3100, "inStock": true, "minimumOrder": 100, "walmartVerified": true, "size": "Large (500-2000)", "priceRange": "Standard ($$)", "aiScore": 81, "lastUpdated": "2025-01-06T08:25:23.609720", "lastStockCheck": "2025-01-06T08:25:23.609720"}
]